,Unnamed: 0,id,name,image,types,styles,latitude,longitude,isSpecialPin,rating,priceClass,address,hasOffer,city,isClubMember,slug,HasReservation,type_1,type_2,type_3,type_4,type_5,type_6,type_7,type_8
0,0,2b34fe76-5a2a-4af5-ba40-8e63f5d164eb,ترنم (مشهد),https://2.fidilio.com/storage/images/thumbs/2b34fe76-5a2a-4af5-ba40-8e63f5d164eb_0.jpg,[1],['ایرانی'],36.2977867,59.59959,False,2.400000095367432,2,مشهد.خیابان دانشگاه بین دانشگاه 6 و 8,False,مشهد,False,radmashhad,False,1,0,0,0,0,0,0,0
1,1,0ca88ab2-9479-4432-b6c2-ae19fb1a1497,گشنیز,https://2.fidilio.com/storage/Images/thumbs/d804c3cf-71b9-4cee-bb51-c20d1c9b4d53.jpg,[1],"['پیتزایی', 'ساندویچی', 'برگر']",36.297966,59.585907,False,5.300000190734863,2, خیابان ابن سینا - بین پاستور و ابن سینا ۱۶,False,مشهد,False,geshniz_mashhad,False,1,0,0,0,0,0,0,0
2,2,fdee0044-9b18-40bc-bac9-bdccf9613a9a,پسران کریم(برج آلتون),https://2.fidilio.com/storage/images/thumbs/fdee0044-9b18-40bc-bac9-bdccf9613a9a_0.jpg,[1],['ایرانی'],36.2943344,59.59358,False,8.300000190734863,2,خیابان دانشگاه ، برج آلتون ,False,مشهد,False,pesarankarimborjealton,False,1,0,0,0,0,0,0,0
3,3,34c7304e-83cd-4f44-8aa4-29d38824dea5,شبهای لبنان,https://2.fidilio.com/storage/images/thumbs/34c7304e-83cd-4f44-8aa4-29d38824dea5_0.jpg,[1],['لبنانی'],36.2954254,59.6124,False,8.699999809265137,2,چهارراه شهدا، نبش بهجت 3,False,مشهد,False,lebnonnights-mashhad,False,1,0,0,0,0,0,0,0
4,4,e1bca96f-9984-46ee-b76c-d26603064f79,آس برگر,https://2.fidilio.com/storage/images/thumbs/e1bca96f-9984-46ee-b76c-d26603064f79_0.jpg,[1],['فست فود'],36.316433,59.57717,False,8.0,2, بلوار قاضی طباطبایی ، نبش قاضی طباطبایی 4,False,مشهد,False,aceburger-mashhad,False,1,0,0,0,0,0,0,0
5,5,0b6d23b3-c5fc-4489-8dd6-27847e95a14e,ارغوان,https://2.fidilio.com/storage/images/thumbs/0b6d23b3-c5fc-4489-8dd6-27847e95a14e_0.jpg,[1],"['کبابی', 'ایرانی']",36.30812,59.5736847,False,6.699999809265137,2,ابتدای بلوار شهید صادقی، بعد از میدان راهنمایی ، بلوار سازمان آب,False,مشهد,False,arghavanmashhad,False,1,0,0,0,0,0,0,0
6,6,eaf92ca1-9350-4243-9d28-9a93e51fe43b,نسیم لبنانی (مشهد),https://2.fidilio.com/storage/Images/thumbs/5e01fd1c-d289-421f-920f-db2f2e147ec2.jpg,[1],['عربی'],36.29186,59.6129532,False,6.0,2,"سه راه ادبیات، رو‌به‌روی جهاد دانشگاهی مشهد

",False,مشهد,False,nasimlobnani,False,1,0,0,0,0,0,0,0
7,7,86d93c44-ea32-4770-a8e5-d3a84e261fb7,معین درباری,https://2.fidilio.com/storage/images/thumbs/86d93c44-ea32-4770-a8e5-d3a84e261fb7_0.jpg,[1],['ایرانی'],36.2878876,59.5968552,False,5.300000190734863,2,خیابان پاسداران (جم) ، بین ۲ و ۴ ،  مقابل هتل باختر ,False,مشهد,False,moeendarbari,False,1,0,0,0,0,0,0,0
8,8,174ef6fe-70ac-4ed8-a182-b432374dee33,رضایی (مشهد),https://2.fidilio.com/storage/Images/thumbs/1604c7ba-72a0-4e11-985d-2da2fc921a45.jpg,[1],['ایرانی'],36.28805,59.60422,False,8.100000381469727,2,خیابان آخوند خراسانی، جلوتر از میدان گنبد سبز، نرسیده به اخوند خراسانی، ۱۰.۱,False,مشهد,False,rezaei_mashhad,False,1,0,0,0,0,0,0,0
9,9,a9392fdd-3d58-4244-b968-07685e8c6746,نارمک,https://2.fidilio.com/storage/images/thumbs/a9392fdd-3d58-4244-b968-07685e8c6746_0.jpg,[1],['ایرانی'],36.2961121,59.57443,False,7.400000095367432,2,مشهد،احمداباد مقابل هتل هما،سالن طبقه بالا,False,مشهد,False,narmakmashhad,False,1,0,0,0,0,0,0,0
10,10,c498ab68-2cd7-49a7-9e90-4669d4e437ac,آل رضا (مشهد),https://2.fidilio.com/storage/images/thumbs/c498ab68-2cd7-49a7-9e90-4669d4e437ac_0.jpg,[1],['ایرانی'],36.32385,59.5731773,False,2.4,1,بلوار فردوسی، نبش فردوسی 2,False,مشهد,False,alrezamashhad,False,1,0,0,0,0,0,0,0
11,11,25289ce9-f5b0-49e3-8084-bbfc8e5afe10,احسان (مشهد),https://2.fidilio.com/storage/images/thumbs/25289ce9-f5b0-49e3-8084-bbfc8e5afe10_0.jpg,[1],['ایرانی'],36.2964,59.57389,False,6.0,2,مشهد.خیابان احمد آباد.مقابل هتل هما,False,مشهد,False,ehsanmashhad,False,1,0,0,0,0,0,0,0
12,12,20fa9987-8ac3-4732-9c56-114b5654057d,نبات,https://2.fidilio.com/storage/images/thumbs/20fa9987-8ac3-4732-9c56-114b5654057d_0.jpg,[2],['کافه'],36.30513,59.56786,False,7.800000190734863,2,خیابان سلمان فارسی ، نرسیده به خیابان فلسطین ، نبش صفا,False,مشهد,False,nabaatcafe-mashhad,False,0,1,0,0,0,0,0,0
13,13,b52b4859-ef5d-4ecc-8c8e-7c0ae37563f0,شکر (احمد آباد),https://2.fidilio.com/storage/images/thumbs/b52b4859-ef5d-4ecc-8c8e-7c0ae37563f0_0.jpg,[2],['کافه'],36.29504,59.572998,False,8.300000190734863,2,احمد آباد ، بلوار ملاصدرا ، ملاصدرا 4 ,False,مشهد,False,suger-ahmadabad-mashhad,False,0,1,0,0,0,0,0,0
14,14,f685293f-0cbb-4476-bfa7-80501d0e2b51,بوکافه (مشهد),https://2.fidilio.com/storage/Images/thumbs/68bb574a-e0be-4567-a940-11ae64eb6331.jpg,[2],['کافه'],36.310154,59.5662842,False,8.100000381469727,2,سه راه فلسطین.دستغیب 10,False,مشهد,False,boocafe,False,0,1,0,0,0,0,0,0
15,15,0b6c0b79-815a-4175-82e0-294898de1414,کافه سید هاشمی,https://2.fidilio.com/storage/images/thumbs/0b6c0b79-815a-4175-82e0-294898de1414_0.jpg,[1],['ایرانی'],36.31265,59.56375,False,8.699999809265137,1,سجاد شهر  ، خیابان دستغیب ، بین دستغیب 28 و 30,False,مشهد,False,cafe-seidhashemi-mashhad,False,1,0,0,0,0,0,0,0
16,16,364eb44d-9c8e-4af1-8526-6184e4b9186b,هفت رنگ پلو,https://2.fidilio.com/storage/Images/thumbs/33a7f325-cf37-408e-8093-f6adc1c5f7be.jpg,[1],['ایرانی'],36.28291,59.61163,False,5.199999809265137,2,خیابان امام رضا (ع)، بین امام رضا ۲ و فلکه آب، شماره ۱۸۴، روبروی هتل مشهد,False,مشهد,False,haftrangpolo-mashhad,False,1,0,0,0,0,0,0,0
17,17,c1773da6-1817-477c-91ba-bef1e756e6a6,لیو (مشهد),https://2.fidilio.com/storage/images/thumbs/c1773da6-1817-477c-91ba-bef1e756e6a6_0.jpg,[1],['ایتالیایی'],36.2911835,59.5720253,False,8.100000381469727,3,بلوار احمد آباد ، بلوار ملاصدرا ، نبش ملاصدرا 19,False,مشهد,False,lio-mashhad,False,1,0,0,0,0,0,0,0
18,18,42ab4e3e-76d9-4bfc-82d5-871e5588302f,علی,https://2.fidilio.com/storage/images/thumbs/42ab4e3e-76d9-4bfc-82d5-871e5588302f_0.jpg,[1],['ایرانی'],36.2821465,59.61088,False,7.1,3,خیابان امام رضا ، نبش امام رضا 4 ,False,مشهد,False,ali-mashhad,False,1,0,0,0,0,0,0,0
19,19,e4d8ffc6-15e9-4683-8403-4f217109721f,الماس (مشهد),https://2.fidilio.com/storage/Images/thumbs/3334ffef-5255-4e5f-b77a-c1326d525193.jpg,[1],['ایرانی'],36.28215,59.6109848,False,0.0,2,خیابان امام رضا (ع)، بعد از امام رضا 29,False,مشهد,False,almas_mashhad,False,1,0,0,0,0,0,0,0
20,20,9246a851-c8f0-4348-9045-8e55842d6bdd,ارکیده سیاه,https://2.fidilio.com/storage/Images/thumbs/901d087e-e609-4b86-ab02-0e61cbe03865.jpg,[1],"['مدیترانه ای', 'فرنگی', 'ایتالیایی']",36.3113365,59.5620537,False,0.0,2,بلوار خيام، فرهاد ٢٥,False,مشهد,False,balackorchid-mashhad,False,1,0,0,0,0,0,0,0
21,21,cbcf984a-f95d-4583-9533-03357d6bb488,دو در یک,https://2.fidilio.com/storage/Images/thumbs/2e21b676-fe75-4c09-9ef0-401fdfb804ed.jpg,[1],['پیتزایی'],36.31188,59.5619545,False,0.0,2,ملک آباد، بین فرهاد۲۵و۲۷,False,مشهد,False,pizaa_dodaryek_mashhad,False,1,0,0,0,0,0,0,0
22,22,091fc7a7-502f-4d24-b7d7-eb369c8176a0,خانه پیتزا(مشهد),https://2.fidilio.com/storage/images/thumbs/091fc7a7-502f-4d24-b7d7-eb369c8176a0_0.jpg,[1],['فست فود'],36.31143,59.5618477,False,8.1,2, فرهاد ۲۵ خانه پیتزا,False,مشهد,False,housepizza,False,1,0,0,0,0,0,0,0
23,23,74e04b63-4a6c-45af-9c75-364d2113797e,پسران کریم(مجتمع مروارید),https://2.fidilio.com/storage/images/thumbs/74e04b63-4a6c-45af-9c75-364d2113797e_0.jpg,[1],['ایرانی'],36.3398,59.5868454,False,8.899999618530273,2,انتهای خیام شمالی ، مجتمع مروارید,False,مشهد,False,Pesarankarimmorvarid,False,1,0,0,0,0,0,0,0
24,24,73a4c02b-b42e-45fe-b7c5-07a3113ad19b,پسران کریم  (بلوار سجاد) ,https://2.fidilio.com/storage/images/thumbs/73a4c02b-b42e-45fe-b7c5-07a3113ad19b_0.jpg,[1],['ایرانی'],36.31273,59.5602722,False,9.5,2,بلوارسجاد ، خیابان فرهاد، فرهاد22 ، انتهای کوچه سمت راست,False,مشهد,False,pesaranekarimbolvarsajad,False,1,0,0,0,0,0,0,0
25,25,dea5fd0a-0714-4ae1-b775-2c974fdd9ea0,بی ام و کلاب ,https://2.fidilio.com/storage/images/thumbs/dea5fd0a-0714-4ae1-b775-2c974fdd9ea0_0.jpg,[1],"['فرنگی', 'غذای دریایی']",36.3162727,59.5578728,False,6.300000190734863,2,بلوار سجاد ، چهارراه گلریز ، گلریز 1 ، پلاک 35,False,مشهد,False,BMWclub,False,1,0,0,0,0,0,0,0
26,26,405985ab-ed80-4e65-aa7e-2cc16ebba221,فود فکتوری,https://2.fidilio.com/storage/images/thumbs/405985ab-ed80-4e65-aa7e-2cc16ebba221_0.jpg,[1],['فرنگی'],36.3083344,59.55628,False,7.300000190734863,1,بلوار ملک آباد ، ملک آباد 15 ، هوشیار ,False,مشهد,False,foodfactory-mashhad,False,1,0,0,0,0,0,0,0
27,27,9c7bfe88-2394-4aea-986f-44de0fa834ce,باغ زیتون (ملک آباد),https://2.fidilio.com/storage/images/thumbs/9c7bfe88-2394-4aea-986f-44de0fa834ce_0.jpg,[1],['ایتالیایی'],36.3058167,59.55634,False,7.3,3,بلوار ملک آباد ، ملک آباد 13 ، نبش چهارراه اول ,False,مشهد,False,olivegarden-malekabad,False,1,0,0,0,0,0,0,0
28,28,eaada586-41b1-4acb-ae81-07384b07d9f8,اطلسیه (مشهد),https://2.fidilio.com/storage/images/thumbs/eaada586-41b1-4acb-ae81-07384b07d9f8_0.jpg,[1],"['کبابی', 'ایرانی']",36.34582,59.597847,False,0.0,3,مشهد.بلوار خیام شمالی ، بر بام مجتمع وصال ،جنب الماس شرق,False,مشهد,False,atlasyeh,False,1,0,0,0,0,0,0,0
29,29,081317a1-4e94-4833-9361-9548619759ce,روف گاردن,https://2.fidilio.com/storage/images/thumbs/081317a1-4e94-4833-9361-9548619759ce_0.jpg,[1],['فرنگی'],36.2753563,59.6055946,False,6.7,3,مشهد.بلوار امام رضا - بین امام رضا 26 و 28,False,مشهد,False,rofgarden,False,1,0,0,0,0,0,0,0
30,30,04d2dc41-3d4f-4f3c-9b68-cf90bcec6993,آتریوم,https://2.fidilio.com/storage/images/thumbs/04d2dc41-3d4f-4f3c-9b68-cf90bcec6993_0.jpg,[1],['ایرانی'],36.27527,59.605423,False,5.2,3,خیابان امام رضا,False,مشهد,False,atriom,False,1,0,0,0,0,0,0,0
31,31,3d097d07-75ac-4f14-8876-139d16357e80,کوک,https://2.fidilio.com/storage/images/thumbs/3d097d07-75ac-4f14-8876-139d16357e80_0.jpg,[2],['کافه'],36.31148,59.5547562,False,8.1,2,بلوار خیام ، خیام 10 ، خیابان زنبق ,False,مشهد,False,kook-mashhad,False,0,1,0,0,0,0,0,0
32,32,1e1d7222-2d58-47d9-8670-5e5a0848cfc4,شکر (سجاد),https://2.fidilio.com/storage/images/thumbs/1e1d7222-2d58-47d9-8670-5e5a0848cfc4_0.jpg,[2],['کافه'],36.3184929,59.5537834,False,7.400000095367432,2,بلوار سجاد ، خیابان بهار 2 ، پلاک 8,False,مشهد,False,suger-sajad-mashhad,False,0,1,0,0,0,0,0,0
33,33,8e2e5ed2-17c2-4ad4-8b67-f9f1274d7986,ضیافت (هتل بین المللی قصر طلایی مشهد ),https://2.fidilio.com/storage/images/thumbs/8e2e5ed2-17c2-4ad4-8b67-f9f1274d7986_0.jpg,[1],[],36.2724075,59.6027832,False,8.3,3, خیابان امام رضا (ع)، میدان بسیج -هتل بین المللی قصرطلایی,False,مشهد,False,ziafathotelghasretalayi,False,1,0,0,0,0,0,0,0
34,34,788bfe65-f65c-432d-8eff-a4d808c09f8f,پرستیژvip,https://2.fidilio.com/storage/images/thumbs/788bfe65-f65c-432d-8eff-a4d808c09f8f_0.jpg,[1],"['فرنگی', 'ایرانی']",36.27232,59.6028023,False,8.1,3,خیابان امام رضا (ع)، میدان بسیج -هتل بین المللی قصرطلایی,False,مشهد,False,vipperestizh,False,1,0,0,0,0,0,0,0
35,35,0468c30c-786f-4e42-8963-3f86f1edf7c8,کاما,https://2.fidilio.com/storage/Images/thumbs/b99bdeb3-7493-44ae-b4df-cac66de219eb.jpg,[2],['کافه'],36.28392,59.5651169,False,0.0,2,نبش کوهسنگی ۲۵,False,مشهد,False,comma_mahshad,False,0,1,0,0,0,0,0,0
36,36,75f5925b-ddbd-4434-a616-cf8b18b87d69,تابستانی بارگاه,https://2.fidilio.com/storage/images/thumbs/75f5925b-ddbd-4434-a616-cf8b18b87d69_0.jpg,[1],"['ایرانی', 'فست فود']",36.2722931,59.60319,False,0.0,3,خیابان امام رضا (ع)، میدان بسیج ، هتل بین المللی قصرطلایی,False,مشهد,False,bargah,False,1,0,0,0,0,0,0,0
37,37,3eb243ab-5af4-4e98-bbc8-5f1e19fa1024,ترنم,https://2.fidilio.com/storage/images/thumbs/3eb243ab-5af4-4e98-bbc8-5f1e19fa1024_0.jpg,[1],"['کبابی', 'ایرانی']",36.27195,59.60284,False,8.300000190734863,3,مشهد، خیابان امام رضا (ع)، میدان بسیج -هتل بین المللی قصرطلایی,False,مشهد,False,tarannom,False,1,0,0,0,0,0,0,0
38,38,685355ab-51fa-480f-8912-d6c3e3c8a4b6,ترمه,https://2.fidilio.com/storage/images/thumbs/685355ab-51fa-480f-8912-d6c3e3c8a4b6_0.jpg,[1],"['سفره خانه', 'ایرانی']",36.27195,59.6028748,False,6.699999809265137,3,خیابان امام رضا (ع)، میدان بسیج -هتل بین المللی قصرطلایی,False,مشهد,False,termeh-rest,False,1,0,0,0,0,0,0,0
39,39,6f543e89-6134-42de-bb7c-3300ee27f3fa,زوشا,https://2.fidilio.com/storage/images/thumbs/6f543e89-6134-42de-bb7c-3300ee27f3fa_0.jpg,[1],"['فرنگی', 'ایرانی', 'آسیایی', 'غذای دریایی']",36.27195,59.6029243,False,4.800000190734863,3,خیابان امام رضا (ع)، میدان بسیج -هتل بین المللی قصرطلایی,False,مشهد,False,zosha,False,1,0,0,0,0,0,0,0
40,40,a32fdb2d-ac77-4b15-ba24-a6ab9ae46bef,باغ زیتون (سجاد),https://2.fidilio.com/storage/images/thumbs/a32fdb2d-ac77-4b15-ba24-a6ab9ae46bef_0.jpg,[1],['ایتالیایی'],36.3223877,59.55331,False,7.300000190734863,3,بلوار سجاد ، بهار 10 ، خیابان 10/3,False,مشهد,False,olivegarden-sajad,False,1,0,0,0,0,0,0,0
41,41,8037ebfe-0fbc-427a-bb22-0c9d5747a7e9,فرنی(مشهد),https://2.fidilio.com/storage/images/thumbs/8037ebfe-0fbc-427a-bb22-0c9d5747a7e9_0.jpg,[1],"['فرنگی', 'ایتالیایی']",36.3178749,59.55085,False,7.5,2,مشهد پاساژ ایران زمین طبقه سوم,False,مشهد,False,fereni,False,1,0,0,0,0,0,0,0
42,42,0a4399c2-b819-490f-803e-a4748cf3a55e,میلان,https://2.fidilio.com/storage/Images/thumbs/8b2d3d19-2734-433b-a6d1-e9cac3a7e73d.jpg,[1],['ایتالیایی'],36.31835,59.5507622,False,6.2,2,بلوار سجاد ، بزرگمهر شمالی 2 ، هتل آپارتمان آران - طبقه فوقانی,False,مشهد,False,milanmad,False,1,0,0,0,0,0,0,0
43,43,93c4176c-d258-4935-8fc0-13c95caf795e,کنتاکی بزرگمهر,https://2.fidilio.com/storage/images/thumbs/93c4176c-d258-4935-8fc0-13c95caf795e_0.jpg,[1],['فست فود'],36.31055,59.5482025,False,7.300000190734863,1,مشهد.بلوار ملک آباد، ابتدای خیابان بزرگمهر,False,مشهد,False,bozorgmehr,False,1,0,0,0,0,0,0,0
44,44,671b74aa-ced0-4b9d-b8b6-5c50df019250,باباقدرت (مشهد),https://2.fidilio.com/storage/Images/thumbs/27a0faa8-a41a-415e-8513-9c1f17ce0222.jpg,[1],"['سفره خانه', 'ایرانی']",36.2714157,59.61934,False,5.800000190734863,3,"انتهای بازار امام رضا (علیه السلام) ، میدان 17 شهریور ، بلوار صدر ، نبش صدر 16
تهران ، میدان هروی خیابان وفا منش نبش کوچه شمس",False,مشهد,False,baaghodratmashhad,False,1,0,0,0,0,0,0,0
45,45,6d0f9b63-2e97-4e59-8a26-a61f0f103204,کافه 81,https://2.fidilio.com/storage/images/thumbs/6d0f9b63-2e97-4e59-8a26-a61f0f103204_0.jpg,[2],['کافه'],36.3154755,59.54591,False,7.5,2,بلوار سجاد ، خیابان حامد جنوبی 9 ،  پلاک 81,False,مشهد,False,cafe81,False,0,1,0,0,0,0,0,0
46,46,dbbf68e4-761a-4b0f-8e93-9bc3808f7a1f,دیزی سرای سعیدی,https://2.fidilio.com/storage/images/thumbs/dbbf68e4-761a-4b0f-8e93-9bc3808f7a1f_0.jpg,[1],['ایرانی'],36.26547,59.6066666,False,6.0,3,گاراژدارا ، کوشش 13,False,مشهد,False,dizisarayesaeedi-mashhad,False,1,0,0,0,0,0,0,0
47,47,78859f28-1d2a-421a-882f-5823b86d8599,سدروس (مشهد),https://2.fidilio.com/storage/Images/thumbs/bc29e293-77df-4f7a-ab69-0bdd49a421fa.jpg,[1],"['ایرانی', 'ایتالیایی']",36.2882156,59.5451279,False,0.0,2,پیروزی،دعبل خزاعی12 ,False,مشهد,False,cedrus_mashhad,False,1,0,0,0,0,0,0,0
48,48,24dc088e-fc2c-46a0-86a5-1177f9b586e7,پردیسان (هتل پردیسان مشهد),https://2.fidilio.com/storage/Images/thumbs/d71cae1e-b68b-4f96-8b06-4b68c3e07419.jpg,[2],['کافه'],36.300602,59.53622,False,6.800000190734863,2, بزرگراه کلانتری بعد از میدان استقلال هتل پردیسان,False,مشهد,False,pardisan_mashad,False,0,1,0,0,0,0,0,0
49,49,e003e8d8-5ea6-422d-ac81-94fa13e8cec3,قصرهدیش,https://2.fidilio.com/storage/Images/thumbs/13717e50-e20d-45cb-905b-19689dc82adc.jpg,[1],['ایرانی'],36.3377724,59.5426521,False,6.2,3,بلوار جانباز ، جنب مجتمع تجاری کیان سنتر,False,مشهد,False,ghsrehadish,False,1,0,0,0,0,0,0,0
50,50,1c0f4b86-cc47-4d68-98f4-b03e814db941,تراس (مشهد),https://2.fidilio.com/storage/Images/thumbs/0bdfde07-c5e3-4a57-ad00-4c1ac53220fc.jpg,"[1, 2]","['فرنگی', 'ایرانی', 'کافه']",36.3214722,59.5330238,False,8.199999809265137,2,مشهد، بلوار وکیل آباد، بین امامت 6 و 8,False,مشهد,False,terasmashhad,False,1,1,0,0,0,0,0,0
51,51,d8ed8d8f-7ee5-4536-bbe8-562e9e1ee4db,مجموعه غذایی تراس,https://2.fidilio.com/storage/Images/thumbs/c7c9fc40-3c03-41d4-9d34-e6963ae2dae0.jpg,"[1, 2]","['فرنگی', 'ایرانی', 'کافه']",36.3214722,59.5330276,False,0.0,2," بلوار وکیل آباد ، بلوار امامت ، بین امامت ۶ و ۸
",False,مشهد,False,terrace-mashhad,False,1,1,0,0,0,0,0,0
52,52,2a6ad8df-bf7c-41b1-981e-09a804886fad,لئون,https://2.fidilio.com/storage/images/thumbs/2a6ad8df-bf7c-41b1-981e-09a804886fad_0.jpg,[2],[],36.26853,59.5518646,False,7.5,2,بزرگراه کلانتری ، مجموعه توریستی آبادگران ، ایران برج 1 ، B1,False,مشهد,False,leon-mashhad,False,0,1,0,0,0,0,0,0
53,53,b6db3385-bbb5-47a5-8533-b268dd723ba8,صندلی,https://2.fidilio.com/storage/images/thumbs/b6db3385-bbb5-47a5-8533-b268dd723ba8_0.jpg,[2],['کافه'],36.3222656,59.5217934,False,6.699999809265137,2,وكيل اباد 15 ، نبش شهيد قاسمي 1,False,مشهد,False,sandali-mashhad,False,0,1,0,0,0,0,0,0
54,54,4ad33d8b-7ebc-4dd1-8b6f-3927f0aa1fb0,آرون (مشهد),https://2.fidilio.com/storage/Images/thumbs/f25ab08f-13cf-4efa-a864-3cf68b9e42b8.jpg,[2],['کافه'],36.3211174,59.5198364,False,0.0,2," كوثر شمالي ١ ، لاله ١ پلاك ١
( وكيل اباد ١٠ ، لاله ، پلاك ١",False,مشهد,False,aron_mashhad,False,0,1,0,0,0,0,0,0
55,55,e120ad7c-caf4-4036-b41b-2e1a3abaa3f2,تاکسی ساندویچ,https://2.fidilio.com/storage/images/thumbs/e120ad7c-caf4-4036-b41b-2e1a3abaa3f2_0.jpg,[1],['ساندویچی'],36.3193779,59.51649,False,7.3,2,بلوار هاشمیه ، هاشمیه 6 ، چهارراه اول  ،سمت چپ ، پلاک 7,False,مشهد,False,taxisandwich-mashhad,False,1,0,0,0,0,0,0,0
56,56,cea333b2-16d8-4511-b929-06157da516b5,پونه,https://2.fidilio.com/storage/images/thumbs/cea333b2-16d8-4511-b929-06157da516b5_0.jpg,[1],['ایرانی'],36.3035927,59.5152245,False,0.0,1,مشهد-بلوار پیروزی-بین پیروزی 27 و 29 مقابل پمپ بنزین,False,مشهد,False,ponemashhad,False,1,0,0,0,0,0,0,0
57,57,a7b17694-a140-4908-b2e8-b661702b084b,ناندوز,https://2.fidilio.com/storage/images/thumbs/a7b17694-a140-4908-b2e8-b661702b084b_0.jpg,[1],['فست فود'],36.31221,59.51447,False,7.6,2,بلوار کوثر ، نبش کوثر شمالی 28,False,مشهد,False,nandos-kosar-mashhad,False,1,0,0,0,0,0,0,0
58,58,a80ddb95-43ac-43cb-8839-56fc7b0c2a79,آنسه,https://2.fidilio.com/storage/images/thumbs/a80ddb95-43ac-43cb-8839-56fc7b0c2a79_0.jpg,[1],['فست فود'],36.3188,59.51192,False,7.4,2,بلوار هاشمیه، نبش هاشمیه ۱۰,False,مشهد,False,anseh-mashhad,False,1,0,0,0,0,0,0,0
59,59,042d691b-67ed-4a7c-b4cb-872839364c07,راستگو,https://2.fidilio.com/storage/images/thumbs/042d691b-67ed-4a7c-b4cb-872839364c07_0.jpg,[1],"['کبابی', 'ایرانی']",36.3245125,59.512413,False,7.900000095367432,3,بلوار وکیل آباد ، بین وکیل آباد 23 و25 ,False,مشهد,False,rastgoo-mashhad,False,1,0,0,0,0,0,0,0
60,60,0b190425-eef2-469f-aa9f-b4434b4c06a7,خانه استیک تنور (مشهد),https://2.fidilio.com/storage/Images/thumbs/9110ddd8-3510-4030-b959-fb0e66f0ec2b.jpg,[1],['فرنگی'],36.32458,59.51225,False,0.0,2,خیابان شهید کلانتری، انتهای نوفل لوشاتو، جنب استخر راد,False,مشهد,False,steak_house_mashhad,False,1,0,0,0,0,0,0,0
61,61,6dfb1def-defb-40fb-9eca-f2036e89003f,برگو,https://2.fidilio.com/storage/images/thumbs/6dfb1def-defb-40fb-9eca-f2036e89003f_0.jpg,[1],['ایتالیایی'],36.3236237,59.5119324,False,8.399999618530273,3,بلوار وکیل آباد،بين هنرستان و هاشمیه،نرسیده به سامانيه ,False,مشهد,False,bergoo-mashhad,False,1,0,0,0,0,0,0,0
62,62,a5f783d9-f586-4395-99c5-29cf4c30d41b,کلبه,https://2.fidilio.com/storage/images/thumbs/a5f783d9-f586-4395-99c5-29cf4c30d41b_0.jpg,[1],"['فرنگی', 'ایرانی']",36.3153763,59.5094147,False,7.800000190734863,3,بلوار وکیل آباد، بلوار هاشمیه ، نبش هاشمیه 18,False,مشهد,False,kolbe-mashhad,False,1,0,0,0,0,0,0,0
63,63,8079beee-b3e2-42db-8446-c52a8cb795c1,گیاهی خانه,https://2.fidilio.com/storage/images/thumbs/8079beee-b3e2-42db-8446-c52a8cb795c1_0.jpg,[1],"['غذای سالم و گیاهی', 'گیاهی', 'غذای سلامت']",36.30941,59.50896,False,6.699999809265137,2,بلوار هاشمیه  ، هاشمیه 28 ، پلاک 36,False,مشهد,False,veganhome-mashhad,False,1,0,0,0,0,0,0,0
64,64,2377c0f4-fcd8-43d0-853a-8f15024b1367,رابو (مشهد),https://2.fidilio.com/storage/Images/thumbs/2e3e9c41-5929-498b-9594-75bb044965e5.jpg,[1],['ایتالیایی'],36.30962,59.50883,False,0.0,2,هاشميه ٢٨، نبش 3/28,False,مشهد,False,rabo_mashhad,False,1,0,0,0,0,0,0,0
65,65,5051f568-afaf-4e31-a867-f39265716d1c,سولو (مشهد),https://2.fidilio.com/storage/images/thumbs/5051f568-afaf-4e31-a867-f39265716d1c_0.jpg,[1],['غذای دریایی'],36.3111076,59.5071678,False,7.5,2,مشهد،هاشمیه 28 ،پلاک 80,False,مشهد,False,solomashhad,False,1,0,0,0,0,0,0,0
66,66,c08cd008-4de5-4f8c-9de2-945454ecee29,میچکا(مشهد),https://2.fidilio.com/storage/images/thumbs/c08cd008-4de5-4f8c-9de2-945454ecee29_0.jpg,[1],"['فرنگی', 'ایرانی']",36.3217163,59.5072136,False,6.900000095367432,2,بلوار وکیل آباد، بلوار هنرستان، نبش هنرستان ۸,False,مشهد,False,michka,False,1,0,0,0,0,0,0,0
67,67,4655dfb2-b7c2-40bc-8414-155c92741257,چیلی چیز,https://2.fidilio.com/storage/images/thumbs/4655dfb2-b7c2-40bc-8414-155c92741257_0.jpg,[1],['فست فود'],36.3251266,59.5004234,False,6.3,2,بلوار هفت تیر، خیابان هفت تیر ۶، قطعه دوم، سمت راست,False,مشهد,False,chelicheese-mashhad,False,1,0,0,0,0,0,0,0
68,68,167e1710-a50a-4145-90db-162ad14a8649,مهستان شاندیز,https://2.fidilio.com/storage/images/thumbs/167e1710-a50a-4145-90db-162ad14a8649_0.jpg,[1],['ایرانی'],36.32366,59.4995232,False,7.199999809265137,3,بلوار هفت تیر ، هفت تیر 8 (گلشن) ، روبروی برج آرمیتاژ,False,مشهد,False,mahestan-shandiz-mashhad,False,1,0,0,0,0,0,0,0
69,69,267e35c0-d19c-4cd1-a56e-a7ec70360abd,فود باکس,https://2.fidilio.com/storage/Images/thumbs/0554e7bd-4476-44f5-9a01-1f48c9eec99e.jpg,[1],['فرنگی'],36.31178,59.49773,False,0.0,2,بلوار هنرستان ، نبش هنرستان 33,False,مشهد,False,foodbox-mashhad,False,1,0,0,0,0,0,0,0
70,70,76782e3b-1a59-481b-a520-75db35320ed9,ویو(مشهد),https://2.fidilio.com/storage/images/thumbs/76782e3b-1a59-481b-a520-75db35320ed9_0.jpg,[2],['کافه'],36.3008957,59.49678,False,0.0,2,انتهای هاشمیه.مجتمع کوهسر.ورودی b.روبه روی تالار.درب۷,False,مشهد,False,View,False,0,1,0,0,0,0,0,0
71,71,a287ca60-7026-42b2-af99-cebdace23d19,گندم,https://2.fidilio.com/storage/Images/thumbs/aaf04377-1056-4b59-8e3f-bdf76b7d9039.jpg,[1],['فرنگی'],36.3091049,59.49344,False,8.1,2,هاشمیه 65 ، ما بین بهار 9 و 11 ,False,مشهد,False,gandom,False,1,0,0,0,0,0,0,0
72,72,e115d315-84ad-4c1c-abcd-b3816543f873,شبدیز,https://2.fidilio.com/storage/images/thumbs/e115d315-84ad-4c1c-abcd-b3816543f873_0.jpg,[1],['فست فود'],36.3193321,59.4939156,False,9.5,2,بلوار هفت تیر ، نبش هفت تیر 15,False,مشهد,False,shabdizfastfood-mashhad,False,1,0,0,0,0,0,0,0
73,73,39494b12-6f23-4b6b-9749-922f7032f8f4,آکاژو,https://2.fidilio.com/storage/images/thumbs/39494b12-6f23-4b6b-9749-922f7032f8f4_0.jpg,[1],['ایتالیایی'],36.29889,59.49072,False,6.7,2,بلوار هاشمیه ، هاشمیه 91/1 ، دور میدان سمت چپ,False,مشهد,False,akajoo-mashhad,False,1,0,0,0,0,0,0,0
74,74,61d7d622-a4c1-4bd5-9590-860bab4f7c01,1860,https://2.fidilio.com/storage/images/thumbs/61d7d622-a4c1-4bd5-9590-860bab4f7c01_0.jpg,[2],['کافه'],36.3016129,59.4854851,False,8.600000381469727,2,هاشمیه 91/5 ، خیابان سوم سمت چپ ، قطعه آخر ,False,مشهد,False,cafe1860-mashhad,False,0,1,0,0,0,0,0,0
75,75,8362a2b4-a11e-44f1-aa99-5c5876ed0aa6,الف,https://2.fidilio.com/storage/images/thumbs/8362a2b4-a11e-44f1-aa99-5c5876ed0aa6_0.jpg,[1],['ایتالیایی'],36.3273926,59.4861374,False,3.8,3,بلوار وکیل آباد ، وکیل آباد 10 ، خیابان لاله ,False,مشهد,False,aleph-mashahd,False,1,0,0,0,0,0,0,0
76,76,abe1b474-beed-4f6d-95c2-e6c62dad9ddb,رترو (مشهد),https://2.fidilio.com/storage/images/thumbs/abe1b474-beed-4f6d-95c2-e6c62dad9ddb_0.jpg,[2],[],36.3321533,59.4655,False,6.7,2,بلوار پیروزی ، بین پیروزی 79 و 81 ، شماره 79 ,False,مشهد,False,retro-mashhad,False,0,1,0,0,0,0,0,0
77,77,3e216c5d-e66d-4e16-9e2d-53badb787672,پای,https://2.fidilio.com/storage/images/thumbs/3e216c5d-e66d-4e16-9e2d-53badb787672_0.jpg,[1],['ایتالیایی'],36.33867,59.4671059,False,6.7,2,وکیل آباد، بین خیابان ۷۷ و ۷۹، پلاک ۴۸,False,مشهد,False,pie-mashhad,False,1,0,0,0,0,0,0,0
78,78,3cd6f830-b1b2-43fd-b7ca-8edddf567b80,مینوسا,https://2.fidilio.com/storage/images/thumbs/3cd6f830-b1b2-43fd-b7ca-8edddf567b80_0.jpg,[1],['ایرانی'],36.33392,59.4301033,False,0.0,3,طرقبه ، نبش امام رضا 18,False,ویلا شهر,False,minousa-mashhad,False,1,0,0,0,0,0,0,0
79,79,54cb4130-cc86-4196-b511-5b668b52cfcc,گنجعلی خان,https://2.fidilio.com/storage/images/thumbs/54cb4130-cc86-4196-b511-5b668b52cfcc_0.jpg,[1],"['سفره خانه', 'ایرانی']",36.30937,59.3624725,False,0.0,2,طرقبه ، ابتدای پل طرقدر,False,طرقدر,False,ganjalikhanmh,False,1,0,0,0,0,0,0,0
80,80,c2b17788-0678-41f6-aaba-829ca87b1442,شبدیز (طرقبه),https://2.fidilio.com/storage/images/thumbs/c2b17788-0678-41f6-aaba-829ca87b1442_0.jpg,[1],"['سفره خانه', 'ایرانی']",36.31203,59.35149,False,6.7,3,طرقبه ، نبش عنبران 3,False,نگین,False,shabdiz-restaurant-torghabe,False,1,0,0,0,0,0,0,0
81,81,1c77a100-793e-4811-8023-f40a292a674d,هنگامه ,https://2.fidilio.com/storage/images/thumbs/1c77a100-793e-4811-8023-f40a292a674d_0.jpg,[1],"['سفره خانه', 'ایرانی']",36.3130226,59.3357239,False,0.0,2,مشهد-اول جاده جاغرق سمت راست,False,جاغرق,False,hengameh,False,1,0,0,0,0,0,0,0
82,82,8677f5b0-0916-45d9-85aa-38d9aeb0dbfc,تشریفات,https://2.fidilio.com/storage/images/thumbs/8677f5b0-0916-45d9-85aa-38d9aeb0dbfc_0.jpg,[1],['ایرانی'],36.31354,59.3310928,False,7.5,3,مشهد.طرقبه ، ۵۰۰متر مانده به جاغرق ، سمت چپ ، مجموعه پذیرایی تشریفات,False,جاغرق,False,tashrifatmashhad,False,1,0,0,0,0,0,0,0
83,83,553e4e9b-57b5-403c-80aa-eedd5be152d9,سید و پسران جاغرق,https://2.fidilio.com/storage/images/thumbs/553e4e9b-57b5-403c-80aa-eedd5be152d9_0.jpg,[1],"['سفره خانه', 'ایرانی']",36.3130341,59.3273735,False,6.7,2,مشهد.نرسیده به جاغرق،سمت چپ رودخانه,False,جاغرق,False,jaghoroghmashhad,False,1,0,0,0,0,0,0,0
84,84,b1d8a4a5-708e-4689-978b-0700469b3ce8,تخت جمشید شاندیز,https://2.fidilio.com/storage/Images/thumbs/6006e4a9-d22e-4508-892f-edafc006b0d3.jpg,[1],['ایرانی'],36.4124069,59.3499031,False,0.0,2,"ابتدای شاندیز،حدفاصل امام رضا ۳ و ۵
",False,روستای حصار سرخ,False,takhtjamshid-shandiz,False,1,0,0,0,0,0,0,0
85,85,43819432-9c60-459f-81d1-aa7898feacd6,باغ سالار(مشهد),https://2.fidilio.com/storage/images/thumbs/43819432-9c60-459f-81d1-aa7898feacd6_0.jpg,[1],['ایرانی'],36.4062424,59.34145,False,0.0,3,جاده شاندیز، بین امام رضا ۸ و ۱۰,False,روستای حصار سرخ,False,baghsalarmashhad,False,1,0,0,0,0,0,0,0
86,86,6183808e-1c10-4a1b-a28a-b2c7223b85a4,شایان شاندیز,https://2.fidilio.com/storage/images/thumbs/6183808e-1c10-4a1b-a28a-b2c7223b85a4_0.jpg,[1],"['سفره خانه', 'ایرانی']",36.3960533,59.3172226,False,8.199999809265137,3,نرسیده به شاندیز ، قبل از میدان پدیده ,False,شاندیز,False,shayanshandiz-mashhad,False,1,0,0,0,0,0,0,0
87,87,b245502f-b3da-44f2-9399-2faf649f0ea2,ارم (شاندیز),https://2.fidilio.com/storage/images/thumbs/b245502f-b3da-44f2-9399-2faf649f0ea2_0.jpg,[1],['ایرانی'],36.3957062,59.3116646,False,7.5,2,شاندیز، نرسیده به میدان دوم,False,شاندیز,False,eramshandiz,False,1,0,0,0,0,0,0,0
88,88,91564b20-6710-4f1f-98d8-5c1af1b30fc3,دیدارشاندیز(مشهد),https://2.fidilio.com/storage/images/thumbs/91564b20-6710-4f1f-98d8-5c1af1b30fc3_0.jpg,[1],['ایرانی'],36.39759,59.30499,False,0.0,2,مشهد، شاندیز، انتهای بلوار آبشار,False,شاندیز,False,Didarshandiz,False,1,0,0,0,0,0,0,0
89,89,6150891a-9306-4427-84ee-760932f0f18e,حسین شیشلیکی,https://2.fidilio.com/storage/images/thumbs/6150891a-9306-4427-84ee-760932f0f18e_0.jpg,[1],['ایرانی'],36.3947067,59.2955322,False,7.300000190734863,3,نرسیده به میدان دوم ، روبروی بهداری ، جنب بتنک صادرات ,False,شاندیز,False,hosein-shishliki-mashhad,False,1,0,0,0,0,0,0,0
90,90,54b73ded-c13a-40ac-b7bf-17b66f5a7762,کوروش vip (مشهد),https://2.fidilio.com/storage/Images/thumbs/2f8609a7-0f73-4bb4-bc00-625ed7850781.jpg,[1],['ایرانی'],36.37831,59.26167,False,0.0,2,شاندیز، ییلاق ابرده,False,ابرده,False,kourosh_mashhad,False,1,0,0,0,0,0,0,0
91,91,28f059e1-3710-42d2-8ac2-0a65240cd273,مهستان,https://2.fidilio.com/storage/Images/thumbs/9b3d1306-ad6a-476f-b778-68b5da960cbd.jpg,[1],"['سفره خانه', 'ایرانی']",36.371788,59.258,False,8.1,2, شاندیز، جاده ییلاقی ابرده، ابرده 10,False,ابرده,False,mahestan,False,1,0,0,0,0,0,0,0
